[
    {
        "city": "Minsk", 
        "lat": "53.9022", 
        "lng": "27.5618", 
        "country": "Belarus", 
        "iso2": "BY", 
        "admin_name": "Minsk", 
        "capital": "primary", 
        "population": "2020600", 
        "population_proper": "2020600"
    }, 
    {
        "city": "Homyel\u2019", 
        "lat": "52.4417", 
        "lng": "30.9833", 
        "country": "Belarus", 
        "iso2": "BY", 
        "admin_name": "Homyel\u2019skaya Voblasts\u2019", 
        "capital": "admin", 
        "population": "510300", 
        "population_proper": "510300"
    }, 
    {
        "city": "Vitsyebsk", 
        "lat": "55.1833", 
        "lng": "30.1667", 
        "country": "Belarus", 
        "iso2": "BY", 
        "admin_name": "Vitsyebskaya Voblasts\u2019", 
        "capital": "admin", 
        "population": "364800", 
        "population_proper": "364800"
    }, 
    {
        "city": "Mahilyow", 
        "lat": "53.9089", 
        "lng": "30.3430", 
        "country": "Belarus", 
        "iso2": "BY", 
        "admin_name": "Mahilyowskaya Voblasts\u2019", 
        "capital": "admin", 
        "population": "357100", 
        "population_proper": "357100"
    }, 
    {
        "city": "Hrodna", 
        "lat": "53.6667", 
        "lng": "23.8167", 
        "country": "Belarus", 
        "iso2": "BY", 
        "admin_name": "Hrodzyenskaya Voblasts\u2019", 
        "capital": "admin", 
        "population": "356900", 
        "population_proper": "356900"
    }, 
    {
        "city": "Brest", 
        "lat": "52.0847", 
        "lng": "23.6569", 
        "country": "Belarus", 
        "iso2": "BY", 
        "admin_name": "Brestskaya Voblasts\u2019", 
        "capital": "admin", 
        "population": "339700", 
        "population_proper": "339700"
    }, 
    {
        "city": "Babruysk", 
        "lat": "53.1500", 
        "lng": "29.2333", 
        "country": "Belarus", 
        "iso2": "BY", 
        "admin_name": "Mahilyowskaya Voblasts\u2019", 
        "capital": "minor", 
        "population": "212200", 
        "population_proper": "212200"
    }, 
    {
        "city": "Baranavichy", 
        "lat": "53.1167", 
        "lng": "25.9833", 
        "country": "Belarus", 
        "iso2": "BY", 
        "admin_name": "Brestskaya Voblasts\u2019", 
        "capital": "minor", 
        "population": "175000", 
        "population_proper": "175000"
    }, 
    {
        "city": "Horad Barysaw", 
        "lat": "54.2260", 
        "lng": "28.4922", 
        "country": "Belarus", 
        "iso2": "BY", 
        "admin_name": "Minskaya Voblasts\u2019", 
        "capital": "minor", 
        "population": "155389", 
        "population_proper": "100000"
    }, 
    {
        "city": "Pinsk", 
        "lat": "52.1228", 
        "lng": "26.0950", 
        "country": "Belarus", 
        "iso2": "BY", 
        "admin_name": "Brestskaya Voblasts\u2019", 
        "capital": "minor", 
        "population": "126300", 
        "population_proper": "126300"
    }, 
    {
        "city": "Orsha", 
        "lat": "54.5092", 
        "lng": "30.4258", 
        "country": "Belarus", 
        "iso2": "BY", 
        "admin_name": "Vitsyebskaya Voblasts\u2019", 
        "capital": "minor", 
        "population": "108100", 
        "population_proper": "108100"
    }, 
    {
        "city": "Mazyr", 
        "lat": "52.0500", 
        "lng": "29.2333", 
        "country": "Belarus", 
        "iso2": "BY", 
        "admin_name": "Homyel\u2019skaya Voblasts\u2019", 
        "capital": "minor", 
        "population": "105700", 
        "population_proper": "105700"
    }, 
    {
        "city": "Lida", 
        "lat": "53.8872", 
        "lng": "25.3028", 
        "country": "Belarus", 
        "iso2": "BY", 
        "admin_name": "Hrodzyenskaya Voblasts\u2019", 
        "capital": "", 
        "population": "102700", 
        "population_proper": "102700"
    }, 
    {
        "city": "Salihorsk", 
        "lat": "52.7842", 
        "lng": "27.5425", 
        "country": "Belarus", 
        "iso2": "BY", 
        "admin_name": "Minskaya Voblasts\u2019", 
        "capital": "minor", 
        "population": "101400", 
        "population_proper": "101400"
    }, 
    {
        "city": "Navapolatsk", 
        "lat": "55.5333", 
        "lng": "28.6667", 
        "country": "Belarus", 
        "iso2": "BY", 
        "admin_name": "Vitsyebskaya Voblasts\u2019", 
        "capital": "", 
        "population": "98800", 
        "population_proper": "98800"
    }, 
    {
        "city": "Maladzyechna", 
        "lat": "54.3136", 
        "lng": "26.8517", 
        "country": "Belarus", 
        "iso2": "BY", 
        "admin_name": "Minskaya Voblasts\u2019", 
        "capital": "minor", 
        "population": "91900", 
        "population_proper": "91900"
    }, 
    {
        "city": "Polatsk", 
        "lat": "55.4833", 
        "lng": "28.8000", 
        "country": "Belarus", 
        "iso2": "BY", 
        "admin_name": "Vitsyebskaya Voblasts\u2019", 
        "capital": "minor", 
        "population": "81000", 
        "population_proper": "81000"
    }, 
    {
        "city": "Svyetlahorsk", 
        "lat": "52.6333", 
        "lng": "29.7333", 
        "country": "Belarus", 
        "iso2": "BY", 
        "admin_name": "Homyel\u2019skaya Voblasts\u2019", 
        "capital": "minor", 
        "population": "80700", 
        "population_proper": "80700"
    }, 
    {
        "city": "Zhlobin", 
        "lat": "52.9000", 
        "lng": "30.0333", 
        "country": "Belarus", 
        "iso2": "BY", 
        "admin_name": "Homyel\u2019skaya Voblasts\u2019", 
        "capital": "minor", 
        "population": "77600", 
        "population_proper": "77600"
    }, 
    {
        "city": "Slutsk", 
        "lat": "53.0167", 
        "lng": "27.5500", 
        "country": "Belarus", 
        "iso2": "BY", 
        "admin_name": "Minskaya Voblasts\u2019", 
        "capital": "minor", 
        "population": "61700", 
        "population_proper": "61700"
    }, 
    {
        "city": "Kobryn", 
        "lat": "52.2167", 
        "lng": "24.3667", 
        "country": "Belarus", 
        "iso2": "BY", 
        "admin_name": "Brestskaya Voblasts\u2019", 
        "capital": "minor", 
        "population": "52600", 
        "population_proper": "52600"
    }, 
    {
        "city": "Slonim", 
        "lat": "53.0833", 
        "lng": "25.3167", 
        "country": "Belarus", 
        "iso2": "BY", 
        "admin_name": "Hrodzyenskaya Voblasts\u2019", 
        "capital": "minor", 
        "population": "50100", 
        "population_proper": "50100"
    }, 
    {
        "city": "Vawkavysk", 
        "lat": "53.1667", 
        "lng": "24.4667", 
        "country": "Belarus", 
        "iso2": "BY", 
        "admin_name": "Hrodzyenskaya Voblasts\u2019", 
        "capital": "minor", 
        "population": "42600", 
        "population_proper": "42600"
    }, 
    {
        "city": "Kalinkavichy", 
        "lat": "52.1333", 
        "lng": "29.3333", 
        "country": "Belarus", 
        "iso2": "BY", 
        "admin_name": "Homyel\u2019skaya Voblasts\u2019", 
        "capital": "minor", 
        "population": "37700", 
        "population_proper": "37700"
    }, 
    {
        "city": "Smarhon\u2019", 
        "lat": "54.4836", 
        "lng": "26.4000", 
        "country": "Belarus", 
        "iso2": "BY", 
        "admin_name": "Hrodzyenskaya Voblasts\u2019", 
        "capital": "minor", 
        "population": "36300", 
        "population_proper": "36300"
    }, 
    {
        "city": "Navahrudak", 
        "lat": "53.5833", 
        "lng": "25.8167", 
        "country": "Belarus", 
        "iso2": "BY", 
        "admin_name": "Hrodzyenskaya Voblasts\u2019", 
        "capital": "", 
        "population": "30800", 
        "population_proper": "30800"
    }, 
    {
        "city": "Horki", 
        "lat": "54.2833", 
        "lng": "30.9833", 
        "country": "Belarus", 
        "iso2": "BY", 
        "admin_name": "Mahilyowskaya Voblasts\u2019", 
        "capital": "minor", 
        "population": "30500", 
        "population_proper": "30500"
    }, 
    {
        "city": "Asipovichy", 
        "lat": "53.3000", 
        "lng": "28.6500", 
        "country": "Belarus", 
        "iso2": "BY", 
        "admin_name": "Mahilyowskaya Voblasts\u2019", 
        "capital": "minor", 
        "population": "29900", 
        "population_proper": "29900"
    }, 
    {
        "city": "Dzyarzhynsk", 
        "lat": "53.6833", 
        "lng": "27.1333", 
        "country": "Belarus", 
        "iso2": "BY", 
        "admin_name": "Minskaya Voblasts\u2019", 
        "capital": "", 
        "population": "29000", 
        "population_proper": "29000"
    }, 
    {
        "city": "Byaroza", 
        "lat": "52.5500", 
        "lng": "24.9667", 
        "country": "Belarus", 
        "iso2": "BY", 
        "admin_name": "Brestskaya Voblasts\u2019", 
        "capital": "minor", 
        "population": "28500", 
        "population_proper": "28500"
    }, 
    {
        "city": "Vilyeyka", 
        "lat": "54.4833", 
        "lng": "26.9167", 
        "country": "Belarus", 
        "iso2": "BY", 
        "admin_name": "Minskaya Voblasts\u2019", 
        "capital": "minor", 
        "population": "27400", 
        "population_proper": "27400"
    }, 
    {
        "city": "Krychaw", 
        "lat": "53.7194", 
        "lng": "31.7139", 
        "country": "Belarus", 
        "iso2": "BY", 
        "admin_name": "Mahilyowskaya Voblasts\u2019", 
        "capital": "minor", 
        "population": "24500", 
        "population_proper": "24500"
    }, 
    {
        "city": "Luninyets", 
        "lat": "52.2500", 
        "lng": "26.8000", 
        "country": "Belarus", 
        "iso2": "BY", 
        "admin_name": "Brestskaya Voblasts\u2019", 
        "capital": "minor", 
        "population": "24000", 
        "population_proper": "24000"
    }, 
    {
        "city": "Mar\u2019\u2019ina Horka", 
        "lat": "53.5167", 
        "lng": "28.1417", 
        "country": "Belarus", 
        "iso2": "BY", 
        "admin_name": "Minskaya Voblasts\u2019", 
        "capital": "", 
        "population": "20800", 
        "population_proper": "20800"
    }, 
    {
        "city": "Pastavy", 
        "lat": "55.1167", 
        "lng": "26.8333", 
        "country": "Belarus", 
        "iso2": "BY", 
        "admin_name": "Vitsyebskaya Voblasts\u2019", 
        "capital": "minor", 
        "population": "19300", 
        "population_proper": "19300"
    }, 
    {
        "city": "Pruzhany", 
        "lat": "52.5567", 
        "lng": "24.4644", 
        "country": "Belarus", 
        "iso2": "BY", 
        "admin_name": "Brestskaya Voblasts\u2019", 
        "capital": "minor", 
        "population": "18900", 
        "population_proper": "18900"
    }, 
    {
        "city": "Dobrush", 
        "lat": "52.4167", 
        "lng": "31.3167", 
        "country": "Belarus", 
        "iso2": "BY", 
        "admin_name": "Homyel\u2019skaya Voblasts\u2019", 
        "capital": "minor", 
        "population": "18300", 
        "population_proper": "18300"
    }, 
    {
        "city": "Hlybokaye", 
        "lat": "55.1333", 
        "lng": "27.6833", 
        "country": "Belarus", 
        "iso2": "BY", 
        "admin_name": "Vitsyebskaya Voblasts\u2019", 
        "capital": "minor", 
        "population": "17800", 
        "population_proper": "17800"
    }, 
    {
        "city": "Ivanava", 
        "lat": "52.1333", 
        "lng": "25.5500", 
        "country": "Belarus", 
        "iso2": "BY", 
        "admin_name": "Brestskaya Voblasts\u2019", 
        "capital": "minor", 
        "population": "16600", 
        "population_proper": "16600"
    }, 
    {
        "city": "Klimavichy", 
        "lat": "53.6167", 
        "lng": "31.9500", 
        "country": "Belarus", 
        "iso2": "BY", 
        "admin_name": "Mahilyowskaya Voblasts\u2019", 
        "capital": "minor", 
        "population": "15600", 
        "population_proper": "15600"
    }, 
    {
        "city": "Masty", 
        "lat": "53.4000", 
        "lng": "24.5333", 
        "country": "Belarus", 
        "iso2": "BY", 
        "admin_name": "Hrodzyenskaya Voblasts\u2019", 
        "capital": "minor", 
        "population": "15200", 
        "population_proper": "15200"
    }, 
    {
        "city": "Lahoysk", 
        "lat": "54.2000", 
        "lng": "27.8500", 
        "country": "Belarus", 
        "iso2": "BY", 
        "admin_name": "Minskaya Voblasts\u2019", 
        "capital": "minor", 
        "population": "15000", 
        "population_proper": "15000"
    }, 
    {
        "city": "Zhabinka", 
        "lat": "52.2006", 
        "lng": "24.0233", 
        "country": "Belarus", 
        "iso2": "BY", 
        "admin_name": "Brestskaya Voblasts\u2019", 
        "capital": "minor", 
        "population": "14000", 
        "population_proper": "14000"
    }, 
    {
        "city": "Khoyniki", 
        "lat": "51.9000", 
        "lng": "29.9667", 
        "country": "Belarus", 
        "iso2": "BY", 
        "admin_name": "Homyel\u2019skaya Voblasts\u2019", 
        "capital": "minor", 
        "population": "13400", 
        "population_proper": "13400"
    }, 
    {
        "city": "Astravyets", 
        "lat": "54.6136", 
        "lng": "25.9553", 
        "country": "Belarus", 
        "iso2": "BY", 
        "admin_name": "Hrodzyenskaya Voblasts\u2019", 
        "capital": "minor", 
        "population": "13200", 
        "population_proper": "13200"
    }, 
    {
        "city": "Malaryta", 
        "lat": "51.7972", 
        "lng": "24.0808", 
        "country": "Belarus", 
        "iso2": "BY", 
        "admin_name": "Brestskaya Voblasts\u2019", 
        "capital": "minor", 
        "population": "12800", 
        "population_proper": "12800"
    }, 
    {
        "city": "Haradok", 
        "lat": "55.4667", 
        "lng": "29.9833", 
        "country": "Belarus", 
        "iso2": "BY", 
        "admin_name": "Vitsyebskaya Voblasts\u2019", 
        "capital": "minor", 
        "population": "11800", 
        "population_proper": "11800"
    }, 
    {
        "city": "Lyuban\u2019", 
        "lat": "52.7819", 
        "lng": "28.0525", 
        "country": "Belarus", 
        "iso2": "BY", 
        "admin_name": "Minskaya Voblasts\u2019", 
        "capital": "minor", 
        "population": "11600", 
        "population_proper": "11600"
    }, 
    {
        "city": "Klyetsk", 
        "lat": "53.0636", 
        "lng": "26.6372", 
        "country": "Belarus", 
        "iso2": "BY", 
        "admin_name": "Minskaya Voblasts\u2019", 
        "capital": "minor", 
        "population": "11400", 
        "population_proper": "11400"
    }, 
    {
        "city": "Staryya Darohi", 
        "lat": "53.0394", 
        "lng": "28.2650", 
        "country": "Belarus", 
        "iso2": "BY", 
        "admin_name": "Minskaya Voblasts\u2019", 
        "capital": "minor", 
        "population": "11200", 
        "population_proper": "11200"
    }, 
    {
        "city": "Kapyl\u2019", 
        "lat": "53.1500", 
        "lng": "27.0917", 
        "country": "Belarus", 
        "iso2": "BY", 
        "admin_name": "Minskaya Voblasts\u2019", 
        "capital": "minor", 
        "population": "10400", 
        "population_proper": "10400"
    }, 
    {
        "city": "Chavusy", 
        "lat": "53.8000", 
        "lng": "30.9667", 
        "country": "Belarus", 
        "iso2": "BY", 
        "admin_name": "Mahilyowskaya Voblasts\u2019", 
        "capital": "minor", 
        "population": "10300", 
        "population_proper": "10300"
    }, 
    {
        "city": "Mstsislaw", 
        "lat": "54.0196", 
        "lng": "31.7247", 
        "country": "Belarus", 
        "iso2": "BY", 
        "admin_name": "Mahilyowskaya Voblasts\u2019", 
        "capital": "minor", 
        "population": "10200", 
        "population_proper": "10200"
    }, 
    {
        "city": "Byalynichy", 
        "lat": "53.9956", 
        "lng": "29.7096", 
        "country": "Belarus", 
        "iso2": "BY", 
        "admin_name": "Mahilyowskaya Voblasts\u2019", 
        "capital": "minor", 
        "population": "10000", 
        "population_proper": "10000"
    }, 
    {
        "city": "Pyetrykaw", 
        "lat": "52.1333", 
        "lng": "28.5000", 
        "country": "Belarus", 
        "iso2": "BY", 
        "admin_name": "Homyel\u2019skaya Voblasts\u2019", 
        "capital": "minor", 
        "population": "10000", 
        "population_proper": "10000"
    }, 
    {
        "city": "Talachyn", 
        "lat": "54.4167", 
        "lng": "29.7000", 
        "country": "Belarus", 
        "iso2": "BY", 
        "admin_name": "Vitsyebskaya Voblasts\u2019", 
        "capital": "minor", 
        "population": "9900", 
        "population_proper": "9900"
    }, 
    {
        "city": "Valozhyn", 
        "lat": "54.0833", 
        "lng": "26.5167", 
        "country": "Belarus", 
        "iso2": "BY", 
        "admin_name": "Minskaya Voblasts\u2019", 
        "capital": "minor", 
        "population": "9700", 
        "population_proper": "9700"
    }, 
    {
        "city": "Braslaw", 
        "lat": "55.6397", 
        "lng": "27.0397", 
        "country": "Belarus", 
        "iso2": "BY", 
        "admin_name": "Vitsyebskaya Voblasts\u2019", 
        "capital": "minor", 
        "population": "9400", 
        "population_proper": "9400"
    }, 
    {
        "city": "Buda-Kashalyova", 
        "lat": "52.7167", 
        "lng": "30.5667", 
        "country": "Belarus", 
        "iso2": "BY", 
        "admin_name": "Homyel\u2019skaya Voblasts\u2019", 
        "capital": "minor", 
        "population": "8800", 
        "population_proper": "8800"
    }, 
    {
        "city": "Krupki", 
        "lat": "54.3250", 
        "lng": "29.1361", 
        "country": "Belarus", 
        "iso2": "BY", 
        "admin_name": "Minskaya Voblasts\u2019", 
        "capital": "minor", 
        "population": "8500", 
        "population_proper": "8500"
    }, 
    {
        "city": "Vyetka", 
        "lat": "52.5592", 
        "lng": "31.1808", 
        "country": "Belarus", 
        "iso2": "BY", 
        "admin_name": "Homyel\u2019skaya Voblasts\u2019", 
        "capital": "minor", 
        "population": "8300", 
        "population_proper": "8300"
    }, 
    {
        "city": "Narowlya", 
        "lat": "51.8000", 
        "lng": "29.5000", 
        "country": "Belarus", 
        "iso2": "BY", 
        "admin_name": "Homyel\u2019skaya Voblasts\u2019", 
        "capital": "minor", 
        "population": "8300", 
        "population_proper": "8300"
    }, 
    {
        "city": "Kirawsk", 
        "lat": "53.2686", 
        "lng": "29.4736", 
        "country": "Belarus", 
        "iso2": "BY", 
        "admin_name": "Mahilyowskaya Voblasts\u2019", 
        "capital": "minor", 
        "population": "8200", 
        "population_proper": "8200"
    }, 
    {
        "city": "Cherykaw", 
        "lat": "53.5667", 
        "lng": "31.3667", 
        "country": "Belarus", 
        "iso2": "BY", 
        "admin_name": "Mahilyowskaya Voblasts\u2019", 
        "capital": "minor", 
        "population": "8000", 
        "population_proper": "8000"
    }, 
    {
        "city": "Myory", 
        "lat": "55.6167", 
        "lng": "27.6167", 
        "country": "Belarus", 
        "iso2": "BY", 
        "admin_name": "Vitsyebskaya Voblasts\u2019", 
        "capital": "minor", 
        "population": "7900", 
        "population_proper": "7900"
    }, 
    {
        "city": "Slawharad", 
        "lat": "53.4453", 
        "lng": "30.9964", 
        "country": "Belarus", 
        "iso2": "BY", 
        "admin_name": "Mahilyowskaya Voblasts\u2019", 
        "capital": "minor", 
        "population": "7900", 
        "population_proper": "7900"
    }, 
    {
        "city": "Kruhlaye", 
        "lat": "54.2479", 
        "lng": "29.7966", 
        "country": "Belarus", 
        "iso2": "BY", 
        "admin_name": "Mahilyowskaya Voblasts\u2019", 
        "capital": "minor", 
        "population": "7600", 
        "population_proper": "7600"
    }, 
    {
        "city": "Klichaw", 
        "lat": "53.4828", 
        "lng": "29.3411", 
        "country": "Belarus", 
        "iso2": "BY", 
        "admin_name": "Mahilyowskaya Voblasts\u2019", 
        "capital": "minor", 
        "population": "7200", 
        "population_proper": "7200"
    }, 
    {
        "city": "Myadzyel", 
        "lat": "54.8756", 
        "lng": "26.9386", 
        "country": "Belarus", 
        "iso2": "BY", 
        "admin_name": "Minskaya Voblasts\u2019", 
        "capital": "minor", 
        "population": "7100", 
        "population_proper": "7100"
    }, 
    {
        "city": "Dubrowna", 
        "lat": "54.5667", 
        "lng": "30.6833", 
        "country": "Belarus", 
        "iso2": "BY", 
        "admin_name": "Vitsyebskaya Voblasts\u2019", 
        "capital": "minor", 
        "population": "7100", 
        "population_proper": "7100"
    }, 
    {
        "city": "Vyerkhnyadzvinsk", 
        "lat": "55.7667", 
        "lng": "27.9333", 
        "country": "Belarus", 
        "iso2": "BY", 
        "admin_name": "Vitsyebskaya Voblasts\u2019", 
        "capital": "minor", 
        "population": "7000", 
        "population_proper": "7000"
    }, 
    {
        "city": "Svislach", 
        "lat": "53.0333", 
        "lng": "24.1000", 
        "country": "Belarus", 
        "iso2": "BY", 
        "admin_name": "Hrodzyenskaya Voblasts\u2019", 
        "capital": "minor", 
        "population": "6400", 
        "population_proper": "6400"
    }, 
    {
        "city": "Horad Zhodzina", 
        "lat": "54.0985", 
        "lng": "28.3331", 
        "country": "Belarus", 
        "iso2": "BY", 
        "admin_name": "Minskaya Voblasts\u2019", 
        "capital": "minor", 
        "population": "", 
        "population_proper": ""
    }, 
    {
        "city": "Horad Pinsk", 
        "lat": "52.1214", 
        "lng": "26.0728", 
        "country": "Belarus", 
        "iso2": "BY", 
        "admin_name": "Brestskaya Voblasts\u2019", 
        "capital": "minor", 
        "population": "", 
        "population_proper": ""
    }, 
    {
        "city": "Horad Smalyavichy", 
        "lat": "54.0249", 
        "lng": "28.0894", 
        "country": "Belarus", 
        "iso2": "BY", 
        "admin_name": "Minskaya Voblasts\u2019", 
        "capital": "minor", 
        "population": "", 
        "population_proper": ""
    }, 
    {
        "city": "Nyasvizh", 
        "lat": "53.2189", 
        "lng": "26.6779", 
        "country": "Belarus", 
        "iso2": "BY", 
        "admin_name": "Minskaya Voblasts\u2019", 
        "capital": "minor", 
        "population": "", 
        "population_proper": ""
    }, 
    {
        "city": "Horad Krychaw", 
        "lat": "53.6989", 
        "lng": "31.7142", 
        "country": "Belarus", 
        "iso2": "BY", 
        "admin_name": "Mahilyowskaya Voblasts\u2019", 
        "capital": "minor", 
        "population": "", 
        "population_proper": ""
    }, 
    {
        "city": "Horad Kobryn", 
        "lat": "52.2161", 
        "lng": "24.3664", 
        "country": "Belarus", 
        "iso2": "BY", 
        "admin_name": "Brestskaya Voblasts\u2019", 
        "capital": "minor", 
        "population": "", 
        "population_proper": ""
    }, 
    {
        "city": "Horad Rechytsa", 
        "lat": "52.3639", 
        "lng": "30.3947", 
        "country": "Belarus", 
        "iso2": "BY", 
        "admin_name": "Homyel\u2019skaya Voblasts\u2019", 
        "capital": "minor", 
        "population": "", 
        "population_proper": ""
    }, 
    {
        "city": "Rechytsa", 
        "lat": "52.3617", 
        "lng": "30.3916", 
        "country": "Belarus", 
        "iso2": "BY", 
        "admin_name": "Homyel\u2019skaya Voblasts\u2019", 
        "capital": "minor", 
        "population": "", 
        "population_proper": ""
    }, 
    {
        "city": "Rahachow", 
        "lat": "53.0934", 
        "lng": "30.0495", 
        "country": "Belarus", 
        "iso2": "BY", 
        "admin_name": "Homyel\u2019skaya Voblasts\u2019", 
        "capital": "minor", 
        "population": "", 
        "population_proper": ""
    }, 
    {
        "city": "Horad Luninyets", 
        "lat": "52.2503", 
        "lng": "26.7994", 
        "country": "Belarus", 
        "iso2": "BY", 
        "admin_name": "Brestskaya Voblasts\u2019", 
        "capital": "minor", 
        "population": "", 
        "population_proper": ""
    }, 
    {
        "city": "Ashmyany", 
        "lat": "54.4210", 
        "lng": "25.9360", 
        "country": "Belarus", 
        "iso2": "BY", 
        "admin_name": "Hrodzyenskaya Voblasts\u2019", 
        "capital": "minor", 
        "population": "", 
        "population_proper": ""
    }, 
    {
        "city": "Vyalikaya Byerastavitsa", 
        "lat": "53.1960", 
        "lng": "24.0166", 
        "country": "Belarus", 
        "iso2": "BY", 
        "admin_name": "Hrodzyenskaya Voblasts\u2019", 
        "capital": "minor", 
        "population": "", 
        "population_proper": ""
    }, 
    {
        "city": "Chashniki", 
        "lat": "54.8584", 
        "lng": "29.1608", 
        "country": "Belarus", 
        "iso2": "BY", 
        "admin_name": "Vitsyebskaya Voblasts\u2019", 
        "capital": "minor", 
        "population": "", 
        "population_proper": ""
    }, 
    {
        "city": "Shchuchyn", 
        "lat": "53.6014", 
        "lng": "24.7465", 
        "country": "Belarus", 
        "iso2": "BY", 
        "admin_name": "Hrodzyenskaya Voblasts\u2019", 
        "capital": "minor", 
        "population": "", 
        "population_proper": ""
    }, 
    {
        "city": "Lyakhavichy", 
        "lat": "53.0388", 
        "lng": "26.2656", 
        "country": "Belarus", 
        "iso2": "BY", 
        "admin_name": "Brestskaya Voblasts\u2019", 
        "capital": "minor", 
        "population": "", 
        "population_proper": ""
    }, 
    {
        "city": "Voranava", 
        "lat": "54.1492", 
        "lng": "25.3112", 
        "country": "Belarus", 
        "iso2": "BY", 
        "admin_name": "Hrodzyenskaya Voblasts\u2019", 
        "capital": "minor", 
        "population": "", 
        "population_proper": ""
    }, 
    {
        "city": "Ivatsevichy", 
        "lat": "52.7090", 
        "lng": "25.3401", 
        "country": "Belarus", 
        "iso2": "BY", 
        "admin_name": "Brestskaya Voblasts\u2019", 
        "capital": "minor", 
        "population": "", 
        "population_proper": ""
    }, 
    {
        "city": "Hantsavichy", 
        "lat": "52.7580", 
        "lng": "26.4300", 
        "country": "Belarus", 
        "iso2": "BY", 
        "admin_name": "Brestskaya Voblasts\u2019", 
        "capital": "minor", 
        "population": "", 
        "population_proper": ""
    }, 
    {
        "city": "Drybin", 
        "lat": "54.1192", 
        "lng": "31.0939", 
        "country": "Belarus", 
        "iso2": "BY", 
        "admin_name": "Mahilyowskaya Voblasts\u2019", 
        "capital": "minor", 
        "population": "", 
        "population_proper": ""
    }, 
    {
        "city": "Shklow", 
        "lat": "54.2131", 
        "lng": "30.2877", 
        "country": "Belarus", 
        "iso2": "BY", 
        "admin_name": "Mahilyowskaya Voblasts\u2019", 
        "capital": "minor", 
        "population": "", 
        "population_proper": ""
    }, 
    {
        "city": "Horad Orsha", 
        "lat": "54.5153", 
        "lng": "30.4053", 
        "country": "Belarus", 
        "iso2": "BY", 
        "admin_name": "Vitsyebskaya Voblasts\u2019", 
        "capital": "minor", 
        "population": "", 
        "population_proper": ""
    }, 
    {
        "city": "Kastsyukovichy", 
        "lat": "53.3525", 
        "lng": "32.0514", 
        "country": "Belarus", 
        "iso2": "BY", 
        "admin_name": "Mahilyowskaya Voblasts\u2019", 
        "capital": "minor", 
        "population": "", 
        "population_proper": ""
    }, 
    {
        "city": "Karma", 
        "lat": "53.1301", 
        "lng": "30.8016", 
        "country": "Belarus", 
        "iso2": "BY", 
        "admin_name": "Homyel\u2019skaya Voblasts\u2019", 
        "capital": "minor", 
        "population": "", 
        "population_proper": ""
    }, 
    {
        "city": "Sharkawshchyna", 
        "lat": "55.3689", 
        "lng": "27.4686", 
        "country": "Belarus", 
        "iso2": "BY", 
        "admin_name": "Vitsyebskaya Voblasts\u2019", 
        "capital": "minor", 
        "population": "", 
        "population_proper": ""
    }, 
    {
        "city": "Bykhaw", 
        "lat": "53.5210", 
        "lng": "30.2454", 
        "country": "Belarus", 
        "iso2": "BY", 
        "admin_name": "Mahilyowskaya Voblasts\u2019", 
        "capital": "minor", 
        "population": "", 
        "population_proper": ""
    }, 
    {
        "city": "Chachersk", 
        "lat": "52.9164", 
        "lng": "30.9179", 
        "country": "Belarus", 
        "iso2": "BY", 
        "admin_name": "Homyel\u2019skaya Voblasts\u2019", 
        "capital": "minor", 
        "population": "", 
        "population_proper": ""
    }, 
    {
        "city": "Zhytkavichy", 
        "lat": "52.2168", 
        "lng": "27.8561", 
        "country": "Belarus", 
        "iso2": "BY", 
        "admin_name": "Homyel\u2019skaya Voblasts\u2019", 
        "capital": "minor", 
        "population": "", 
        "population_proper": ""
    }, 
    {
        "city": "Loyew", 
        "lat": "51.9458", 
        "lng": "30.7953", 
        "country": "Belarus", 
        "iso2": "BY", 
        "admin_name": "Homyel\u2019skaya Voblasts\u2019", 
        "capital": "minor", 
        "population": "", 
        "population_proper": ""
    }, 
    {
        "city": "Khotsimsk", 
        "lat": "53.4086", 
        "lng": "32.5780", 
        "country": "Belarus", 
        "iso2": "BY", 
        "admin_name": "Mahilyowskaya Voblasts\u2019", 
        "capital": "minor", 
        "population": "", 
        "population_proper": ""
    }, 
    {
        "city": "Yel\u2019sk", 
        "lat": "51.8141", 
        "lng": "29.1522", 
        "country": "Belarus", 
        "iso2": "BY", 
        "admin_name": "Homyel\u2019skaya Voblasts\u2019", 
        "capital": "minor", 
        "population": "", 
        "population_proper": ""
    }, 
    {
        "city": "Lyozna", 
        "lat": "55.0247", 
        "lng": "30.7970", 
        "country": "Belarus", 
        "iso2": "BY", 
        "admin_name": "Vitsyebskaya Voblasts\u2019", 
        "capital": "minor", 
        "population": "", 
        "population_proper": ""
    }, 
    {
        "city": "Hlusk", 
        "lat": "52.9030", 
        "lng": "28.6845", 
        "country": "Belarus", 
        "iso2": "BY", 
        "admin_name": "Mahilyowskaya Voblasts\u2019", 
        "capital": "minor", 
        "population": "", 
        "population_proper": ""
    }, 
    {
        "city": "Dokshytsy", 
        "lat": "54.8918", 
        "lng": "27.7667", 
        "country": "Belarus", 
        "iso2": "BY", 
        "admin_name": "Vitsyebskaya Voblasts\u2019", 
        "capital": "minor", 
        "population": "", 
        "population_proper": ""
    }, 
    {
        "city": "Aktsyabrski", 
        "lat": "52.6440", 
        "lng": "28.8801", 
        "country": "Belarus", 
        "iso2": "BY", 
        "admin_name": "Homyel\u2019skaya Voblasts\u2019", 
        "capital": "minor", 
        "population": "", 
        "population_proper": ""
    }, 
    {
        "city": "Krasnapollye", 
        "lat": "53.3353", 
        "lng": "31.3999", 
        "country": "Belarus", 
        "iso2": "BY", 
        "admin_name": "Mahilyowskaya Voblasts\u2019", 
        "capital": "minor", 
        "population": "", 
        "population_proper": ""
    }, 
    {
        "city": "Lyel\u2019chytsy", 
        "lat": "51.7862", 
        "lng": "28.3288", 
        "country": "Belarus", 
        "iso2": "BY", 
        "admin_name": "Homyel\u2019skaya Voblasts\u2019", 
        "capital": "minor", 
        "population": "", 
        "population_proper": ""
    }, 
    {
        "city": "Brahin", 
        "lat": "51.7870", 
        "lng": "30.2677", 
        "country": "Belarus", 
        "iso2": "BY", 
        "admin_name": "Homyel\u2019skaya Voblasts\u2019", 
        "capital": "minor", 
        "population": "", 
        "population_proper": ""
    }, 
    {
        "city": "Rasony", 
        "lat": "55.9058", 
        "lng": "28.8135", 
        "country": "Belarus", 
        "iso2": "BY", 
        "admin_name": "Vitsyebskaya Voblasts\u2019", 
        "capital": "minor", 
        "population": "", 
        "population_proper": ""
    }
]